City_ID,City,Lat,Lng,Max Temp,Humidity,Cloudiness,Wind Speed,Country,Date
0,chegdomyn,51.1167,133.0167,-29.139999999999986,100,37,1.04,RU,1708797140
1,hithadhoo,-0.6,73.0833,28.32000000000005,79,91,6.32,MV,1708797140
2,badger,64.8,-147.5333,-18.859999999999985,81,0,0.0,US,1708797140
3,nagqu,31.5,92.0,-8.95999999999998,37,85,9.02,CN,1708797141
4,waitangi,-43.9535,-176.5597,17.120000000000005,94,100,2.24,NZ,1708797141
5,labrador city,52.9463,-66.9114,-21.049999999999983,59,20,5.14,CA,1708797141
6,edinburgh of the seven seas,-37.0676,-12.3116,17.30000000000001,67,4,5.82,SH,1708797142
7,fomboni,-12.28,43.7425,29.02000000000004,69,100,0.35,KM,1708797142
8,mount isa,-20.7333,139.5,25.870000000000005,73,10,4.12,AU,1708797142
9,port-aux-francais,-49.35,70.2167,5.7000000000000455,76,59,11.85,TF,1708797143
10,brisas barra de suchiate,14.55,-92.2167,28.52000000000004,62,7,4.23,MX,1708797143
11,wailua homesteads,22.0669,-159.378,22.439999999999998,77,20,3.6,US,1708797143
12,petawawa,45.9001,-77.3328,-12.339999999999975,47,76,2.24,CA,1708797144
13,puerto ayora,-0.7393,-90.3518,30.980000000000018,90,53,4.92,EC,1708796915
14,rio grande,-32.035,-52.0986,29.060000000000002,71,18,5.76,BR,1708797103
15,papatowai,-46.5619,169.4708,11.920000000000016,89,91,6.23,NZ,1708796847
16,blackmans bay,-43.0167,147.3167,12.07000000000005,89,43,0.45,AU,1708797146
17,grytviken,-54.2811,-36.5092,2.430000000000007,68,89,6.09,GS,1708797146
18,fortuna,40.5982,-124.1573,12.770000000000039,89,0,0.0,US,1708797146
19,waspan,14.7419,-83.9717,31.75,36,6,2.43,NI,1708797146
20,ilulissat,69.2167,-51.1,-3.9899999999999523,63,75,3.6,GL,1708796920
21,jasper,37.2001,-94.3502,13.920000000000016,43,0,0.89,US,1708797147
22,christchurch,-43.5333,172.6333,15.850000000000023,83,69,1.54,NZ,1708796904
23,remire-montjoly,4.9167,-52.2667,26.02000000000004,100,75,1.54,GF,1708797013
24,aasiaat,68.7098,-52.8699,-10.919999999999959,84,100,5.06,GL,1708797148
25,jamestown,42.097,-79.2353,-1.3799999999999955,50,55,2.68,US,1708797073
26,anadyr,64.75,177.4833,-19.71999999999997,76,75,5.0,RU,1708796878
27,al kharijah,25.4514,30.5464,19.58000000000004,33,20,4.17,EG,1708797148
28,piti village,13.4626,144.6933,26.49000000000001,89,75,4.12,GU,1708797149
29,bredasdorp,-34.5322,20.0403,17.060000000000002,86,100,7.86,ZA,1708797149
30,invercargill,-46.4,168.35,12.79000000000002,84,91,4.02,NZ,1708796868
31,salalah,17.0151,54.0924,26.05000000000001,69,20,1.03,OM,1708797149
32,san patricio,28.017,-97.5169,26.05000000000001,30,6,4.77,US,1708797148
33,thunder bay,48.4001,-89.3168,-2.009999999999991,54,20,5.66,CA,1708796908
34,bethel,41.3712,-73.414,5.57000000000005,50,0,6.69,US,1708797150
35,as sulayyil,20.4607,45.5779,27.140000000000043,15,1,4.09,SA,1708797150
36,adamstown,-25.066,-130.1015,26.370000000000005,76,45,5.83,PN,1708796850
37,manaure,11.7751,-72.4445,30.29000000000002,56,87,4.96,CO,1708797150
38,puerto deseado,-47.7503,-65.8938,16.57000000000005,50,19,7.98,AR,1708797151
39,uturoa,-16.7333,-151.4333,28.230000000000018,76,82,3.66,PF,1708797151
40,sisimiut,66.9395,-53.6735,-13.189999999999998,90,100,6.53,GL,1708797151
41,castlegar,49.2998,-117.6689,5.3799999999999955,91,100,1.7,CA,1708797151
42,albany,42.6001,-73.9662,-0.6599999999999682,58,54,2.24,US,1708797040
43,kerikeri,-35.2268,173.9474,20.510000000000048,92,82,2.44,NZ,1708797152
44,ondjiva,-17.0667,15.7333,34.02000000000004,27,0,0.51,AO,1708797152
45,stanley,54.868,-1.6985,5.770000000000039,75,40,1.54,GB,1708797152
46,petropavlovsk-kamchatsky,53.0452,158.6483,-20.859999999999985,82,0,5.36,RU,1708797153
47,king,47.4665,-121.8179,3.3799999999999955,91,99,0.89,US,1708797153
48,alofi,-19.0595,-169.9187,24.939999999999998,94,75,1.54,NU,1708797153
49,ushuaia,-54.8,-68.3,11.810000000000002,71,0,4.12,AR,1708797153
50,galliano,29.4422,-90.2992,23.33000000000004,20,0,4.12,US,1708797153
51,alice springs,-23.7,133.8833,27.900000000000034,34,0,3.6,AU,1708797154
52,whitehorse,60.7161,-135.0538,-16.569999999999993,84,20,1.54,CA,1708797154
53,las tunas,20.9617,-76.9511,30.430000000000007,31,1,5.76,CU,1708797154
54,flying fish cove,-10.4217,105.6791,25.82000000000005,88,40,1.54,CX,1708796991
55,talnakh,69.4865,88.3972,-19.329999999999984,93,99,4.37,RU,1708797155
56,yellowknife,62.456,-114.3525,-25.879999999999967,80,75,4.63,CA,1708797155
57,pama,11.2497,0.7075,34.68000000000001,19,98,1.35,BF,1708797155
58,keflavik,64.0049,-22.5624,-1.0499999999999545,74,40,7.72,IS,1708797155
59,kapuskasing,49.4169,-82.4331,-10.949999999999989,48,40,4.63,CA,1708797155
60,bar,49.0772,27.6826,9.910000000000025,83,100,6.27,UA,1708797156
61,kyosai,34.8503,128.5886,1.9800000000000182,88,100,6.03,KR,1708797156
62,natchitoches,31.7668,-93.1335,22.470000000000027,28,0,3.6,US,1708797156
63,mount pearl,47.5166,-52.7813,7.2900000000000205,70,75,6.69,CA,1708797039
64,georgetown,5.4112,100.3354,29.970000000000027,77,20,2.06,MY,1708797058
65,mar del plata,-38.0023,-57.5575,18.30000000000001,56,75,6.26,AR,1708797158
66,benguela,-12.5763,13.4055,27.710000000000036,81,100,1.37,AO,1708797158
67,dakoro,14.5106,6.765,28.090000000000032,18,85,3.02,NE,1708797158
68,tres marias,19.0522,-99.2431,19.060000000000002,24,0,2.68,MX,1708797158
69,thompson,55.7435,-97.8558,-1.9099999999999682,74,75,7.2,CA,1708797158
70,darchula,29.8412,80.5287,7.060000000000002,38,85,3.12,NP,1708797159
71,dampit,-8.2116,112.7493,22.400000000000034,98,100,0.43,ID,1708797159
72,college,64.8569,-147.8028,-18.819999999999965,77,40,0.0,US,1708796866
73,bilibino,68.0546,166.4372,-32.40999999999997,100,100,0.6,RU,1708797159
74,atafu village,-8.5421,-172.5159,28.78000000000003,74,48,3.76,TK,1708797159
75,kentau,43.5206,68.5094,-5.21999999999997,64,2,4.68,KZ,1708797160
76,talcahuano,-36.7167,-73.1167,21.82000000000005,46,0,6.69,CL,1708797160
77,klyuchi,52.2667,79.1667,-21.089999999999975,95,24,2.63,RU,1708797160
78,sicuani,-14.2694,-71.2261,13.870000000000005,65,100,1.29,PE,1708797160
79,saldanha,-33.0117,17.9442,20.03000000000003,84,100,8.28,ZA,1708796993
80,chakari,-18.0629,29.8925,24.390000000000043,56,42,2.09,ZW,1708797161
81,inirida,3.8653,-67.9239,39.26000000000005,24,56,1.02,CO,1708797030
82,puerto natales,-51.7236,-72.4875,17.25,51,75,0.0,CL,1708797161
83,pervomays'k,48.0443,30.8507,9.25,65,100,8.62,UA,1708797163
84,xacmaz,41.4635,48.806,1.82000000000005,76,100,1.11,AZ,1708797163
85,svetlyy,54.675,20.1347,5.2000000000000455,85,77,5.56,RU,1708797163
86,tornio,65.8481,24.1466,3.0100000000000477,95,100,6.08,FI,1708797163
87,ribeira grande,38.5167,-28.7,18.220000000000027,82,40,7.2,PT,1708797164
88,zunyi,27.6867,106.9072,0.4800000000000182,90,100,1.12,CN,1708797164
89,tonj,7.2737,28.6822,32.160000000000025,30,100,2.45,SS,1708797164
90,fale old settlement,-9.3852,-171.2468,29.05000000000001,75,45,3.65,TK,1708797165
91,lihue,21.9789,-159.3672,22.77000000000004,76,20,3.6,US,1708797165
92,haiku-pauwela,20.9219,-156.3051,21.129999999999995,88,20,4.02,US,1708797165
93,sept-iles,50.2001,-66.3821,-9.409999999999968,58,20,7.2,CA,1708797165
94,west island,-12.1568,96.8225,28.25,66,100,4.69,CC,1708797165
95,hasaki,35.7333,140.8333,2.9399999999999977,56,100,5.39,JP,1708797166
96,port elizabeth,-33.918,25.5701,21.170000000000016,84,0,3.6,ZA,1708797166
97,broken hill,-31.95,141.4333,17.310000000000002,30,0,1.4,AU,1708797166
98,yarmouth,41.7057,-70.2286,4.4500000000000455,79,100,9.39,US,1708797166
99,puerto aysen,-45.4,-72.7,17.870000000000005,63,72,1.2,CL,1708797166
100,la ronge,55.1001,-105.2842,-7.859999999999957,62,75,9.77,CA,1708797167
101,mahina,-17.5065,-149.489,29.870000000000005,70,20,1.54,PF,1708797167
102,fort st. john,56.2499,-120.8529,-6.060000000000002,58,75,3.09,CA,1708797167
103,magdagachi,53.45,125.8,-25.539999999999964,100,59,0.98,RU,1708797167
104,qina,26.1642,32.7267,21.650000000000034,26,35,4.38,EG,1708797168
105,port lincoln,-34.7333,135.8667,17.220000000000027,80,63,2.0,AU,1708797168
106,margaret river,-33.95,115.0667,16.210000000000036,78,49,5.68,AU,1708797168
107,saint-girons,42.9167,1.1667,4.580000000000041,57,96,1.23,FR,1708797168
108,portland,45.5234,-122.6762,9.990000000000009,89,75,1.54,US,1708796998
109,varna,43.2167,27.9167,11.360000000000014,76,40,4.12,BG,1708797169
110,vlore,40.4667,19.4897,13.930000000000007,63,100,10.72,AL,1708797169
111,kodiak,57.79,-152.4072,-1.2699999999999818,64,0,4.12,US,1708797169
112,san fernando,15.0286,120.6898,26.850000000000023,76,61,2.59,PH,1708797169
113,tsiombe,-25.3,45.4833,24.30000000000001,82,20,8.09,MG,1708797169
114,qaqortoq,60.7167,-46.0333,-0.8599999999999568,94,100,3.19,GL,1708797170
115,uusikaupunki,60.8004,21.4084,-0.060000000000002274,100,100,1.53,FI,1708797170
116,high river,50.5834,-113.8687,-2.25,85,96,2.72,CA,1708797170
117,longyearbyen,78.2186,15.6401,-5.089999999999975,80,75,1.54,SJ,1708797170
118,weno,7.4515,151.8468,27.340000000000032,84,64,8.03,FM,1708797171
119,zhongshan,21.3226,110.5829,18.450000000000045,63,100,3.93,CN,1708797171
120,sitia,35.2,26.0986,16.100000000000023,72,0,3.16,GR,1708797171
121,alto araguaia,-17.3147,-53.2153,29.560000000000002,57,89,4.4,BR,1708797171
122,sydney,-33.8679,151.2073,18.170000000000016,87,53,3.6,AU,1708797081
123,isafjordur,66.0755,-23.124,-8.20999999999998,77,46,2.53,IS,1708797172
124,pemangkat,1.1667,108.9667,25.53000000000003,91,74,3.98,ID,1708797172
125,lazaro cardenas,17.9583,-102.2,28.590000000000032,58,85,3.18,MX,1708797172
126,mil'kovo,55.6078,37.7956,1.3500000000000227,84,100,7.21,RU,1708797172
127,utrik,11.2278,169.8474,25.32000000000005,80,100,7.84,MH,1708797173
128,dudinka,69.4058,86.1778,-19.069999999999965,93,100,8.49,RU,1708797173
129,olonkinbyen,70.9221,-8.7187,-4.489999999999952,70,100,10.26,SJ,1708797173
130,bellavista,-7.0561,-76.5911,32.710000000000036,66,40,1.54,PE,1708797173
131,howrah,22.5892,88.3103,23.0,64,40,2.57,IN,1708797139
132,lebu,-37.6167,-73.65,17.370000000000005,61,84,7.12,CL,1708797174
133,new norfolk,-42.7826,147.0587,12.720000000000027,97,48,1.41,AU,1708797174
134,harstad,68.799,16.5293,5.660000000000025,97,99,12.07,NO,1708797174
135,antofagasta,-23.65,-70.4,23.600000000000023,69,83,4.42,CL,1708797174
136,voi,-3.3945,38.563,25.600000000000023,72,95,1.16,KE,1708797174
137,dryden,49.7833,-92.7503,-1.839999999999975,50,20,8.75,CA,1708797175
138,iqaluit,63.7506,-68.5145,-30.149999999999977,67,40,1.03,CA,1708797006
139,midvagur,62.0511,-7.1939,2.4600000000000364,87,75,6.69,FO,1708797175
140,tiksi,71.6872,128.8694,-29.43999999999997,99,84,3.86,RU,1708797175
141,hadibu,12.65,54.0333,24.680000000000007,69,48,3.6,YE,1708797175
142,monrovia,6.3005,-10.7969,28.24000000000001,72,11,5.37,LR,1708797064
143,tura,25.5198,90.2201,16.53000000000003,27,18,1.26,IN,1708797176
144,avarua,-21.2078,-159.775,26.03000000000003,100,75,0.0,CK,1708797176
145,constantia,44.1833,28.65,10.390000000000043,81,52,7.09,RO,1708797176
146,puerto cortez,15.8333,-87.95,31.230000000000018,71,49,3.25,HN,1708797176
147,karratha,-20.7377,116.8463,27.620000000000005,75,72,5.64,AU,1708797176
148,san julian,21.0167,-102.1667,22.57000000000005,25,92,2.7,MX,1708797177
149,sola,-13.8833,167.55,28.420000000000016,77,98,4.23,VU,1708797177
150,champerico,14.3,-91.9167,32.30000000000001,60,15,3.94,GT,1708797177
151,aripuana,-9.1667,-60.6333,24.129999999999995,94,100,1.82,BR,1708797177
152,obo,5.3998,26.4869,28.930000000000007,31,100,1.9,CF,1708797177
153,hammerfest,70.6634,23.6821,4.25,70,91,9.77,NO,1708797178
154,biltine,14.5333,20.9167,30.07000000000005,18,28,4.13,TD,1708797088
155,north bend,43.4065,-124.2243,10.04000000000002,93,0,0.0,US,1708797178
156,dassa-zoume,7.75,2.1833,33.660000000000025,31,79,5.01,BJ,1708797178
157,robore,-18.3333,-59.75,28.060000000000002,85,100,0.79,BO,1708797178
158,kudymkar,59.0173,54.656,-7.21999999999997,94,92,3.81,RU,1708797178
159,sandnessjoen,66.0217,12.6316,4.2900000000000205,66,100,9.57,NO,1708797179
160,suda,59.1525,37.5582,1.0600000000000023,98,100,5.88,RU,1708797179
161,pecos,31.4229,-103.4932,17.910000000000025,31,0,0.0,US,1708797179
162,hastings,50.8552,0.5729,6.960000000000036,86,70,1.52,GB,1708797179
163,port augusta,-32.5,137.7667,18.29000000000002,34,20,1.61,AU,1708797179
164,port isabel,26.0734,-97.2086,26.02000000000004,68,0,4.12,US,1708797470
165,vadso,70.0744,29.7487,3.490000000000009,83,100,12.16,NO,1708797180
166,rikaze,29.25,88.8833,-4.0499999999999545,21,64,2.29,CN,1708797180
167,conde,-7.2597,-34.9075,31.700000000000045,62,20,7.2,BR,1708797180
168,masterton,-40.9597,175.6575,17.83000000000004,82,99,4.51,NZ,1708797180
169,padang,-0.9492,100.3543,25.03000000000003,88,100,1.41,ID,1708797180
170,santa terezinha,-29.9002,-50.0904,27.54000000000002,74,3,4.26,BR,1708797180
171,antsohihy,-14.8796,47.9875,25.760000000000048,93,100,0.96,MG,1708797181
172,korla,41.7597,86.1469,-2.2799999999999727,50,100,1.89,CN,1708797181
173,divo,5.8397,-5.36,32.56,31,68,1.77,CI,1708797181
174,inarajan village,13.2736,144.7484,26.54000000000002,93,100,8.66,GU,1708797181
175,kalengwa,-13.4659,25.0027,19.170000000000016,85,100,2.3,ZM,1708797181
176,ravar,31.2656,56.8055,12.710000000000036,26,100,1.01,IR,1708797181
177,sitka,57.0531,-135.33,0.9399999999999977,80,20,2.06,US,1708797004
178,saipan,15.1355,145.701,25.390000000000043,83,20,5.14,MP,1708797182
179,vorgashor,67.5833,63.95,-4.310000000000002,96,100,5.21,RU,1708797182
180,agat village,13.3886,144.6585,26.52000000000004,90,75,4.12,GU,1708797182
181,codrington,-38.2667,141.9667,10.850000000000023,83,56,2.89,AU,1708797183
182,st. john's,47.5649,-52.7093,4.660000000000025,78,75,6.17,CA,1708797153
183,skovorodino,53.9833,123.9167,-25.089999999999975,100,45,1.13,RU,1708797183
184,mitsamiouli,-11.3847,43.2844,28.24000000000001,74,92,1.21,KM,1708797184
185,tutong,4.8,114.65,28.05000000000001,90,69,2.55,BN,1708797184
186,tabou,4.423,-7.3528,28.75,80,66,5.44,CI,1708797184
187,kirakira,-10.4544,161.9205,26.590000000000032,85,99,1.67,SB,1708797184
188,williamston,35.8546,-77.0555,15.050000000000011,52,2,3.86,US,1708797128
189,gadzhiyevo,69.2551,33.3362,1.8400000000000318,78,26,11.76,RU,1708797185
190,arteche,12.2645,125.4048,24.960000000000036,90,32,3.09,PH,1708797185
191,takoradi,4.8845,-1.7554,27.950000000000045,76,77,3.21,GH,1708797185
192,meulaboh,4.1363,96.1285,25.83000000000004,89,93,2.03,ID,1708797185
193,saint-pierre,-21.3393,55.4781,25.82000000000005,94,100,2.06,RE,1708797186
194,kenora,49.8167,-94.4337,-3.4599999999999795,74,20,8.75,CA,1708797186
195,nandurbar,21.3667,74.25,21.80000000000001,15,0,0.95,IN,1708797186
196,nova sintra,14.8667,-24.7167,20.52000000000004,74,99,9.98,CV,1708797186
197,shangrao,28.4532,117.9686,2.2200000000000273,94,100,2.3,CN,1708797186
198,pangody,65.85,74.4859,-12.25,95,100,6.52,RU,1708797187
199,katsuura,35.1333,140.3,7.680000000000007,67,94,5.32,JP,1708797187
200,sao vicente,-23.9631,-46.3919,31.660000000000025,49,75,2.57,BR,1708797187
201,bengkulu,-3.8004,102.2655,25.200000000000045,90,99,1.44,ID,1708797187
202,al artawiyah,26.5053,45.3444,20.25,40,100,5.44,SA,1708797187
203,aldinga beach,-35.2793,138.4604,19.80000000000001,48,80,2.36,AU,1708797188
204,selfoss,63.9331,-20.9971,-5.529999999999973,81,100,4.5,IS,1708797188
205,enewetak,11.3474,162.3373,25.840000000000032,79,97,7.98,MH,1708797188
206,phek,25.6667,94.5,4.670000000000016,81,7,0.32,IN,1708797188
207,udachny,66.4167,112.4,-31.609999999999985,95,97,1.49,RU,1708797189
208,punta arenas,-53.15,-70.9167,15.060000000000002,63,75,5.14,CL,1708796904
209,port mathurin,-19.6833,63.4167,26.950000000000045,84,99,6.96,MU,1708797189
210,nar'yan-mar,67.6713,53.087,-1.0499999999999545,94,100,7.6,RU,1708797190
211,lagos,6.5833,3.75,32.18000000000001,66,98,1.18,NG,1708797016
212,afaahiti,-17.75,-149.2833,28.930000000000007,75,80,2.04,PF,1708796911
213,genthin,52.4,12.1667,7.2000000000000455,73,53,4.37,DE,1708797190
214,bada,51.392,109.8717,-25.299999999999983,96,6,1.43,RU,1708797190
215,east london,-33.0153,27.9116,22.52000000000004,78,20,3.09,ZA,1708797190
216,jalor,25.35,72.6167,16.860000000000014,14,4,1.86,IN,1708797191
217,ndende,-2.4008,11.3581,24.5,93,100,1.29,GA,1708797191
218,isangel,-19.55,169.2667,25.900000000000034,87,90,4.67,VU,1708797191
219,akureyri,65.6835,-18.0878,-2.0399999999999636,80,75,7.2,IS,1708797191
220,kargasok,59.0556,80.8572,-14.45999999999998,96,99,2.68,RU,1708797192
221,salavan,15.7167,106.4167,21.450000000000045,82,62,1.56,LA,1708797192
222,laguna,38.421,-121.4238,18.99000000000001,70,0,2.57,US,1708797192
223,villa gesell,-37.2639,-56.973,19.470000000000027,54,80,6.71,AR,1708797192
224,afif,23.9065,42.9172,25.230000000000018,32,13,9.29,SA,1708797192
225,usogorsk,63.4106,48.6872,-0.12999999999999545,94,100,4.58,RU,1708797192
226,lompoc,34.6391,-120.4579,19.78000000000003,69,0,3.09,US,1708797193
227,jiangyou,31.7667,104.7167,2.580000000000041,81,66,0.96,CN,1708797193
228,urengoy,65.9667,78.3667,-17.129999999999995,94,100,5.73,RU,1708797193
229,tazovsky,67.4667,78.7,-16.870000000000005,95,100,7.2,RU,1708797194
230,hermanus,-34.4187,19.2345,17.600000000000023,82,100,5.32,ZA,1708797194
231,miri,4.4148,114.0089,26.08000000000004,94,40,1.54,MY,1708797194
232,camacupa,-12.0167,17.4833,18.689999999999998,94,100,2.06,AO,1708797195
233,kununurra,-15.7667,128.7333,25.99000000000001,94,100,1.54,AU,1708797195
234,abu zabad,12.35,29.25,29.410000000000025,27,89,2.1,SD,1708797195
235,hawaiian paradise park,19.5933,-154.9731,20.5,85,20,2.57,US,1708797195
236,swakopmund,-22.6833,14.5333,18.32000000000005,80,25,1.79,NA,1708797196
237,cabo san lucas,22.8909,-109.9124,28.670000000000016,66,99,1.79,MX,1708797481
238,maralal,1.0968,36.698,17.700000000000045,67,75,3.08,KE,1708797196
239,tutoia,-2.7619,-42.2744,27.78000000000003,77,68,3.82,BR,1708797196
240,dombarovskiy,50.7587,59.5386,-21.109999999999985,81,2,0.89,RU,1708797196
241,huarmey,-10.0681,-78.1522,27.32000000000005,72,92,5.97,PE,1708797197
242,khandyga,62.6667,135.6,-43.01999999999998,100,54,1.01,RU,1708797197
243,tamandare,-8.7597,-35.1047,29.710000000000036,65,7,5.56,BR,1708797197
244,tindouf,27.6711,-8.1474,29.25,11,0,2.06,DZ,1708797197
245,port huron,42.9709,-82.4249,-2.849999999999966,65,100,6.17,US,1708796927
246,ghanzi,-21.5667,21.7833,29.510000000000048,25,5,3.91,BW,1708797198
247,cartagena del chaira,1.3349,-74.8429,37.910000000000025,24,80,2.56,CO,1708797198
248,sumbawa besar,-8.5,117.4333,24.28000000000003,95,52,1.57,ID,1708797198
249,merizo village,13.2658,144.6691,26.310000000000002,93,100,8.78,GU,1708797199
250,zhezqazghan,47.7833,67.7667,-22.539999999999964,77,0,3.63,KZ,1708797199
251,gorgan,36.8387,54.4348,5.980000000000018,93,100,2.06,IR,1708797199
252,wenchang,30.904,118.4887,-1.0199999999999818,91,100,2.23,CN,1708797199
253,yeppoon,-23.1333,150.7333,23.879999999999995,84,100,5.96,AU,1708797200
254,namtsy,62.7161,129.6658,-39.609999999999985,100,54,0.28,RU,1708797200
255,jiuquan,39.7432,98.5174,-8.409999999999968,92,41,1.01,CN,1708797200
256,pedernales,18.0384,-71.744,26.99000000000001,56,0,3.33,DO,1708797200
257,yugorsk,61.3133,63.3319,-7.839999999999975,94,43,3.26,RU,1708797201
258,fort bragg,35.139,-79.006,17.120000000000005,40,75,5.66,US,1708797201
259,aykhal,66.0,111.5,-26.73999999999998,82,100,2.04,RU,1708797201
260,port douglas,-16.4833,145.4667,26.410000000000025,86,76,1.16,AU,1708797201
261,trondheim,63.4305,10.3951,6.03000000000003,83,82,2.42,NO,1708797201
262,oranjemund,-28.55,16.4333,17.710000000000036,86,2,3.41,NA,1708797202
263,aljezur,37.3191,-8.8033,13.960000000000036,68,66,5.85,PT,1708797202
264,stornoway,58.2093,-6.3865,5.020000000000039,76,28,1.03,GB,1708797202
265,kingston,17.997,-76.7936,27.53000000000003,69,75,3.6,JM,1708797435
266,malvik,63.4333,10.6833,5.770000000000039,52,0,8.75,NO,1708797203
267,caleta de carquin,-11.0925,-77.6267,27.230000000000018,71,94,6.31,PE,1708797203
268,sambalpur,21.45,83.9667,21.689999999999998,73,60,2.41,IN,1708797203
269,zahedan,29.4963,60.8629,10.950000000000045,25,0,2.06,IR,1708797203
270,sucua,-2.4667,-78.1667,26.410000000000025,69,75,5.14,EC,1708797204
271,kargil,34.5667,76.1,-19.47999999999999,93,100,0.22,IN,1708797204
272,margate,51.3813,1.3862,4.610000000000014,90,95,0.45,GB,1708797204
273,ancud,-41.8697,-73.8203,16.53000000000003,61,28,3.58,CL,1708797204
274,hauterive,46.0901,3.4459,6.420000000000016,74,68,3.54,FR,1708797205
275,coishco,-9.0231,-78.6156,26.960000000000036,71,31,5.86,PE,1708797205
276,kassala,15.451,36.4,29.560000000000002,44,20,6.34,SD,1708797028
277,amga,60.8953,131.9608,-36.75999999999999,100,100,0.29,RU,1708797205
278,erenhot,43.6475,111.9767,-12.539999999999964,72,73,1.33,CN,1708797206
279,dalbandin,28.8947,64.4101,14.78000000000003,19,42,2.88,PK,1708797206
280,bereket,39.2446,55.5154,1.7900000000000205,90,91,5.17,TM,1708797206
281,lagoa,39.05,-27.9833,16.0,83,100,9.41,PT,1708797206
282,mata-utu,-13.2816,-176.1745,28.689999999999998,77,40,4.51,WF,1708797206
283,kasongo-lunda,-6.4667,16.8167,23.620000000000005,95,100,0.17,CD,1708797206
284,mejit,10.2753,170.8646,26.02000000000004,81,100,9.32,MH,1708797207
285,maun,-19.9833,23.4167,35.98000000000002,23,0,1.54,BW,1708797207
286,ise-ekiti,7.4632,5.4281,28.930000000000007,31,100,0.81,NG,1708797207
287,copala,16.65,-98.9833,30.110000000000014,53,12,3.13,MX,1708797207
288,kill devil hills,36.0307,-75.676,14.0,69,75,2.57,US,1708797208
289,yreka,41.7354,-122.6345,9.160000000000025,79,0,0.0,US,1708797181
290,chui,-33.6971,-53.4616,25.129999999999995,53,70,6.16,UY,1708797208
291,la passe,45.5549,-0.8967,8.129999999999995,76,94,6.45,FR,1708797208
292,bubaque,11.2833,-15.8333,26.99000000000001,55,8,5.76,GW,1708797209
293,angra do heroismo,38.65,-27.2167,20.340000000000032,86,20,4.47,PT,1708797209
294,peterhead,57.5058,-1.7981,5.220000000000027,76,58,1.2,GB,1708797209
295,manay,7.215,126.5397,23.74000000000001,73,13,3.25,PH,1708797209
296,lorengau,-2.0226,147.2712,26.170000000000016,87,100,5.27,PG,1708797210
297,igrim,63.1906,64.4162,-6.859999999999957,92,98,3.22,RU,1708797210
298,carnarvon,-24.8667,113.6333,27.410000000000025,79,100,7.39,AU,1708797210
299,kruisfontein,-34.0033,24.7314,19.939999999999998,81,52,2.71,ZA,1708797210
300,horta,38.5333,-28.6333,17.80000000000001,86,40,7.2,PT,1708797211
301,manitou springs,38.8597,-104.9172,13.360000000000014,13,0,7.72,US,1708797177
302,san juan,-31.5375,-68.5364,30.27000000000004,27,10,1.97,AR,1708797037
303,revda,56.801,59.9303,-12.199999999999989,88,60,5.26,RU,1708797211
304,kalajoki,64.25,23.95,3.2800000000000296,91,91,4.29,FI,1708797211
305,tolanaro,-25.0319,46.9987,26.04000000000002,83,40,6.17,MG,1708797212
306,kharkhorin,47.1975,102.8238,-23.589999999999975,97,67,1.99,MN,1708797212
307,polyarnyy,69.1989,33.4478,1.910000000000025,79,28,11.18,RU,1708797212
308,illizi,26.4833,8.4667,27.890000000000043,11,0,5.53,DZ,1708797212
309,ciudad bolivar,8.1222,-63.5497,37.400000000000034,27,48,3.18,VE,1708797213
310,bayanhongor,46.7167,100.1167,-29.329999999999984,76,4,1.93,MN,1708797213
311,saint-joseph,-21.3667,55.6167,25.210000000000036,90,95,2.54,RE,1708797213
312,inyonga,-6.7167,32.0667,22.730000000000018,72,100,1.37,TZ,1708797213
313,ta`u,-14.2336,-169.5144,27.900000000000034,78,79,3.32,AS,1708797213
314,kibre mengist,5.8833,38.9833,17.200000000000045,38,60,0.94,ET,1708797213
315,manghit,42.1156,60.0597,-2.009999999999991,44,89,5.72,UZ,1708797214
316,castillos,-34.1667,-53.8333,24.53000000000003,54,16,5.64,UY,1708797214
317,alaghsas,17.0187,8.0168,29.939999999999998,7,0,3.6,NE,1708797214
318,yichang,30.7144,111.2847,-0.42999999999995,95,98,0.56,CN,1708797215
319,kuta,-8.7233,115.1723,26.970000000000027,88,40,2.24,ID,1708797215
320,jackson,42.4165,-122.8345,12.439999999999998,76,0,0.0,US,1708797215
321,akhtubinsk,48.2795,46.1722,-6.029999999999973,74,0,3.91,RU,1708797215
322,talakan,50.3167,130.3667,-26.109999999999985,100,95,1.08,RU,1708797215
323,bamboo flat,11.7,92.7167,26.05000000000001,83,9,0.51,IN,1708797216
324,siguiri,11.6667,-9.5,34.81,6,10,1.65,GN,1708797216
325,semirom,31.4167,51.5667,0.9000000000000341,100,100,1.58,IR,1708797216
326,arno,60.1167,18.6333,0.9900000000000091,98,100,2.48,SE,1708797216
327,swift current,50.2834,-107.8014,0.4500000000000455,80,75,5.66,CA,1708797217
328,namibe,-15.1961,12.1522,25.210000000000036,83,100,4.93,AO,1708797217
329,sankheda,22.1667,73.5833,20.879999999999995,14,0,2.6,IN,1708797217
330,susuman,62.7833,148.1667,-37.789999999999964,99,85,0.45,RU,1708797217
331,holualoa,19.6228,-155.9522,19.910000000000025,71,0,3.09,US,1708797217
332,petrolina,-9.3986,-40.5008,32.03000000000003,48,75,5.66,BR,1708797218
333,gebeit,21.0667,36.3167,22.480000000000018,44,19,3.91,SD,1708797218
334,manavalakurichi,8.1333,77.3,26.49000000000001,83,9,2.23,IN,1708797218
335,yigo village,13.5361,144.8886,25.620000000000005,88,100,7.2,GU,1708797218
336,hamilton,39.1834,-84.5333,1.0600000000000023,69,100,6.69,US,1708797218
337,bel ombre,-4.6167,55.4167,26.910000000000025,89,40,2.06,SC,1708797219
338,whangarei,-35.7317,174.3239,19.02000000000004,93,91,2.22,NZ,1708797219
339,atani,6.0294,6.7472,29.57000000000005,32,99,2.03,NG,1708797219
340,kokopo,-4.352,152.2633,25.78000000000003,84,93,1.43,PG,1708797219
341,pisco,-13.7,-76.2167,27.03000000000003,65,0,4.63,PE,1708797219
342,kailua-kona,19.6406,-155.9956,21.980000000000018,69,0,3.09,US,1708797220
343,sumbe,-11.2061,13.8437,27.07000000000005,85,100,2.75,AO,1708797220
344,bonthe,7.5264,-12.505,29.170000000000016,59,12,6.2,SL,1708797220
345,lagunas,-5.2269,-75.6753,32.150000000000034,56,99,1.74,PE,1708797220
346,kupang,-10.1667,123.5833,26.32000000000005,100,98,1.54,ID,1708797221
347,davydovo,55.6097,38.8569,0.9000000000000341,94,100,6.3,RU,1708797221
348,itoman,26.1247,127.6694,19.210000000000036,82,75,10.29,JP,1708797221
349,palikir - national government center,6.9248,158.1611,27.170000000000016,82,100,9.5,FM,1708797104
350,afega,-13.7973,-171.8531,25.0,94,20,0.0,WS,1708797222
351,tucuma,-0.1833,-50.05,26.55000000000001,82,98,2.53,BR,1708797222
352,vorkuta,67.5,64.0,-4.169999999999959,96,100,5.3,RU,1708797222
353,mancio lima,-7.6142,-72.8958,25.04000000000002,94,100,2.06,BR,1708797222
354,sao geraldo do araguaia,-6.4006,-48.555,28.80000000000001,81,26,2.2,BR,1708797223
355,san rafael,-34.6177,-68.3301,27.0,33,1,4.19,AR,1708797223
356,san luis de la loma,17.2706,-100.8939,30.090000000000032,56,64,3.98,MX,1708797223
357,quartu sant'elena,39.2419,9.1839,14.160000000000025,69,40,2.57,IT,1708796953
358,walvis bay,-22.9575,14.5053,18.379999999999995,71,11,8.03,NA,1708797223
359,muisne,0.6,-80.0333,27.650000000000034,76,82,3.48,EC,1708797224
360,george town,5.4112,100.3354,29.970000000000027,77,20,2.06,MY,1708797224
361,touros,-5.1989,-35.4608,30.860000000000014,59,35,6.81,BR,1708797224
362,okhotsk,59.3833,143.3,-24.95999999999998,83,22,4.61,RU,1708797224
363,mulayjah,27.271,48.4242,18.879999999999995,59,93,7.43,SA,1708797224
364,nakhon si thammarat,8.25,100.0,25.260000000000048,80,59,1.5,TH,1708797225
365,egilsstadir,65.2653,-14.3948,-2.0499999999999545,86,75,6.17,IS,1708797225
366,port victoria,0.0939,33.9756,24.99000000000001,60,100,4.83,KE,1708797225
367,san carlos de bariloche,-41.1456,-71.3082,20.860000000000014,26,20,2.06,AR,1708797180
368,lata,40.1629,-8.3327,14.900000000000034,86,88,3.38,PT,1708797225
369,hell-ville,-13.4,48.2667,27.160000000000025,84,72,4.21,MG,1708797226
370,ust-nera,64.5667,143.2,-36.099999999999966,99,66,1.32,RU,1708797226
371,coquimbo,-29.9533,-71.3436,21.850000000000023,73,0,7.2,CL,1708797226
372,kristiansund,63.1115,7.732,5.360000000000014,60,40,3.6,NO,1708797226
373,khovd,48.0056,91.6419,-17.839999999999975,82,88,1.17,MN,1708797226
374,bathsheba,13.2167,-59.5167,30.340000000000032,66,40,9.26,BB,1708797227
375,nuuk,64.1835,-51.7216,-4.659999999999968,100,100,4.12,GL,1708797118
376,kitimat,54.0524,-128.6534,2.170000000000016,66,100,2.24,CA,1708797227
377,phongsali,21.6833,102.1058,11.760000000000048,36,0,0.21,LA,1708797227
378,la'ie,21.6477,-157.9253,22.980000000000018,83,17,4.02,US,1708797227
379,labis,2.385,103.021,22.870000000000005,93,13,0.76,MY,1708797227
380,ribeira brava,32.65,-17.0667,19.450000000000045,70,43,2.32,PT,1708797227
381,crane,31.3974,-102.3501,20.0,32,0,8.6,US,1708797228
382,weinzierl bei krems,48.4,15.6,8.210000000000036,90,100,1.64,AT,1708797228
383,berdigestyakh,62.0989,126.6992,-33.619999999999976,100,100,0.38,RU,1708797228
384,aguilas,37.4063,-1.5829,14.160000000000025,46,68,7.9,ES,1708797228
385,haimen,23.1935,116.6142,14.939999999999998,85,89,4.97,CN,1708797228
386,pontal,-21.0225,-48.0372,29.150000000000034,56,94,1.59,BR,1708797228
387,port alfred,-33.5906,26.891,18.430000000000007,92,57,3.87,ZA,1708797229
388,minas de marcona,-15.2119,-75.1103,24.910000000000025,54,81,8.21,PE,1708797229
389,iskilip,40.7353,34.4739,9.150000000000034,53,0,0.85,TR,1708797229
390,nemuro,43.3236,145.575,-5.25,65,16,4.53,JP,1708797229
391,port-gentil,-0.7193,8.7815,29.980000000000018,79,40,2.06,GA,1708797229
392,baikonur,45.6167,63.3167,-8.329999999999984,58,3,6.21,KZ,1708797229
393,monduli,-3.3,36.45,19.090000000000032,80,99,2.96,TZ,1708797230
394,cape coast,5.1053,-1.2466,28.170000000000016,76,98,4.62,GH,1708797230
395,frankfort,-27.2667,28.4833,22.310000000000002,46,82,1.3,ZA,1708797230
396,asau,46.4333,26.4,9.600000000000023,63,100,1.75,RO,1708797230
397,saint croix,17.7397,-64.7388,29.25,77,75,4.63,VI,1708797230
398,san miguel,13.4833,-88.1833,36.26000000000005,21,34,0.23,SV,1708797231
399,mwingi,-0.9344,38.0601,21.060000000000002,78,69,0.51,KE,1708797231
400,zapolyarnyy,69.4154,30.8136,2.6000000000000227,79,94,12.82,RU,1708797231
401,dunedin,-45.8742,170.5036,13.220000000000027,74,44,4.47,NZ,1708797231
402,oppdal,62.5943,9.6912,-6.5499999999999545,88,27,5.42,NO,1708797231
403,taguatinga,-12.3857,-46.5711,31.980000000000018,52,66,2.54,BR,1708797231
404,naxos,37.1056,25.3764,17.390000000000043,69,2,2.24,GR,1708797232
405,mchinji,-13.7984,32.8802,19.29000000000002,94,85,1.26,MW,1708797232
406,yauya,-8.9833,-77.3,19.03000000000003,26,99,2.23,PE,1708797232
407,sao joao da barra,-21.6403,-41.0511,32.05000000000001,83,29,6.31,BR,1708797232
408,metlili chaamba,32.2667,3.6333,15.520000000000039,31,40,9.77,DZ,1708797217
409,kuandian,40.7286,124.7847,-4.060000000000002,88,100,1.16,CN,1708797233
410,arsk,56.0915,49.8778,-10.370000000000005,88,14,3.75,RU,1708797233
411,pingdu,36.7844,119.9464,-4.819999999999993,82,55,2.77,CN,1708797233
412,goondiwindi,-28.55,150.3167,23.200000000000045,83,100,2.78,AU,1708797233
413,geraldton,-28.7667,114.6,23.230000000000018,88,100,8.75,AU,1708797021
414,guerrero negro,27.9769,-114.0611,22.710000000000036,38,24,1.56,MX,1708797233
415,maba,24.6841,113.5984,3.8799999999999955,33,100,1.8,CN,1708797233
416,kapa'a,22.0752,-159.319,23.180000000000007,77,20,3.6,US,1708797234
417,isabela,6.7085,121.9711,25.890000000000043,83,78,0.47,PH,1708797234
418,nizhnesortymskiy,62.4397,71.7603,-8.71999999999997,96,100,2.04,RU,1708797234
419,talara,-4.5772,-81.2719,32.420000000000016,55,0,6.17,PE,1708797234
420,ulricehamn,57.7916,13.4142,5.300000000000011,80,91,2.13,SE,1708797234
421,puerto baquerizo moreno,-0.9,-89.6,28.55000000000001,84,40,2.06,EC,1708797234
422,ketchikan,55.3422,-131.6461,3.5200000000000387,100,100,1.54,US,1708797235
423,yuli,9.6989,10.2744,29.680000000000007,26,100,2.15,NG,1708797235
424,elkhorn,42.6728,-88.5445,-1.42999999999995,68,100,2.57,US,1708797235
425,taltal,-25.4,-70.4833,23.33000000000004,71,42,4.12,CL,1708797235
426,suva,-18.1416,178.4415,23.710000000000036,94,40,1.54,FJ,1708797235
427,laem sing,12.4816,102.0738,26.890000000000043,78,22,1.27,TH,1708797235
428,san luis,-33.295,-66.3356,23.80000000000001,53,53,2.25,AR,1708797236
429,merritt island,28.5392,-80.672,23.910000000000025,38,0,5.66,US,1708797236
430,vanersborg,58.3807,12.3234,5.8799999999999955,87,100,2.06,SE,1708797236
431,crucecita,-28.95,-58.9833,36.870000000000005,28,67,2.81,AR,1708797236
432,coruripe,-10.1256,-36.1756,29.78000000000003,63,23,5.6,BR,1708797236
433,vieste,41.8825,16.175,12.520000000000039,75,92,4.3,IT,1708797236
434,chiriguana,9.3624,-73.6031,37.950000000000045,28,75,2.5,CO,1708797237
435,chiredzi,-21.05,31.6667,28.850000000000023,39,7,3.22,ZW,1708797237
436,stranraer,54.9023,-5.0273,5.75,80,38,1.36,GB,1708797237
437,hobyo,5.3505,48.5268,26.220000000000027,73,83,7.2,SO,1708797237
438,san pedro pochutla,15.7333,-96.4667,31.960000000000036,44,10,4.21,MX,1708797031
439,malvan,16.0667,73.4667,23.390000000000043,58,28,4.13,IN,1708797237
440,havre,49.5833,0.3333,6.8700000000000045,81,20,7.72,FR,1708797238
441,villa tecolutilla,18.2833,-93.3167,26.390000000000043,61,16,3.25,MX,1708797238
442,iskateley,67.6803,53.1512,-1.099999999999966,94,100,7.6,RU,1708797238
443,humaita,-7.5061,-63.0208,24.720000000000027,97,100,2.67,BR,1708797238
444,divnomorskoye,44.5011,38.1353,8.430000000000007,69,1,3.95,RU,1708797238
445,marsa alam,25.0757,34.8918,21.600000000000023,65,71,3.84,EG,1708796956
446,saint-philippe,-21.3585,55.7679,25.77000000000004,89,90,2.85,RE,1708797239
447,buckie,57.6757,-2.9624,3.3600000000000136,86,58,1.21,GB,1708797239
448,diawara,15.022,-12.5437,33.74000000000001,5,68,3.72,SN,1708797239
449,raahe,64.6833,24.4833,2.0500000000000114,90,99,5.29,FI,1708797239
450,kayangel,8.0823,134.7173,27.24000000000001,80,96,7.77,PW,1708797239
451,laguna de perlas,12.3429,-83.6712,30.05000000000001,67,35,4.39,NI,1708797240
452,happy valley-goose bay,53.3168,-60.3315,-7.829999999999984,73,100,6.17,CA,1708797240
453,ulladulla,-35.35,150.4667,15.770000000000039,87,31,1.88,AU,1708796944
454,faya-largeau,17.9257,19.1043,29.08000000000004,23,96,4.83,TD,1708797240
455,ulsteinvik,62.3432,5.8487,4.6200000000000045,87,79,5.36,NO,1708797240
456,silivri,41.0802,28.226,14.950000000000045,77,1,0.98,TR,1708797240
457,vakarai,55.6035,23.8213,4.2900000000000205,83,100,7.14,LT,1708797246
458,cidreira,-30.1811,-50.2056,26.970000000000027,76,11,4.46,BR,1708797246
459,luganville,-15.5333,167.1667,26.640000000000043,87,22,1.81,VU,1708797246
460,qalat,32.1058,66.9083,5.439999999999998,39,84,2.33,AF,1708797246
461,san jose del guaviare,2.5729,-72.6459,36.97000000000003,25,40,3.41,CO,1708797247
462,mazatlan,23.2167,-106.4167,24.390000000000043,67,75,0.45,MX,1708796992
463,chonchi,-42.6128,-73.8092,18.560000000000002,43,27,1.54,CL,1708797247
464,queenstown,-31.8976,26.8753,19.980000000000018,75,57,1.14,ZA,1708797102
465,mocimboa,-11.3167,40.35,25.860000000000014,90,92,3.05,MZ,1708797247
466,misratah,32.3754,15.0925,19.07000000000005,48,99,7.55,LY,1708797248
467,la victoria,10.2184,-67.3302,33.29000000000002,26,98,1.81,VE,1708797248
468,lebowakgomo,-24.2,29.5,28.5,32,28,3.49,ZA,1708797248
469,wynyard,-41.0,145.7167,15.910000000000025,73,69,2.74,AU,1708797248
470,emerald,-23.5333,148.1667,20.75,100,99,2.45,AU,1708796988
471,bikenibeu village,1.3673,173.1241,26.980000000000018,94,20,0.51,KI,1708797249
472,kavieng,-2.5744,150.7967,27.110000000000014,83,100,4.07,PG,1708797249
473,duba,27.3513,35.6901,22.24000000000001,60,15,4.92,SA,1708797249
474,pacific grove,36.6177,-121.9166,20.230000000000018,65,0,0.45,US,1708797249
475,darwin,-12.4611,130.8418,28.99000000000001,89,100,4.12,AU,1708797228
476,karsava,56.7841,27.6883,6.390000000000043,88,100,8.2,LV,1708797250
477,valparaiso,-33.0393,-71.6273,22.80000000000001,70,0,4.63,CL,1708796953
478,beloyarskiy,63.7119,66.6722,-6.109999999999957,91,100,2.24,RU,1708797250
479,yangi qal'ah,37.4657,69.6113,7.760000000000048,49,43,1.75,AF,1708797250
480,hoshcha,50.6003,26.6744,9.260000000000048,81,100,4.79,UA,1708797250
481,chibougamau,49.9168,-74.3659,-22.20999999999998,64,0,2.57,CA,1708797251
482,balabac,7.9868,117.0645,27.129999999999995,77,13,5.83,PH,1708797251
483,mersa matruh,31.3525,27.2453,17.110000000000014,72,20,5.14,EG,1708797252
484,bartica,6.4,-58.6167,31.180000000000007,50,98,2.42,GY,1708797252
485,luanda,-8.8368,13.2343,28.0,83,75,4.63,AO,1708797252
486,kamina,-8.7386,24.9906,19.129999999999995,96,100,1.06,CD,1708797252
487,jertih,5.7336,102.4897,23.370000000000005,93,21,1.48,MY,1708797252
488,ohara,35.25,140.3833,7.260000000000048,67,98,4.73,JP,1708797253
489,kavaratti,10.5669,72.642,27.260000000000048,62,31,4.17,IN,1708797253
490,zouerate,22.7187,-12.4521,24.970000000000027,22,0,7.9,MR,1708797253
491,kaoma,-14.7833,24.8,25.58000000000004,43,96,1.07,ZM,1708797254
492,acapulco de juarez,16.8634,-99.8901,29.900000000000034,58,0,2.06,MX,1708796964
493,chibuto,-24.6867,33.5306,27.30000000000001,60,22,6.14,MZ,1708797254
494,vila franca do campo,37.7167,-25.4333,18.27000000000004,99,100,4.92,PT,1708797254
495,eraan,9.0629,117.7016,24.850000000000023,87,5,1.51,PH,1708797254
496,vila velha,-20.3297,-40.2925,30.970000000000027,75,20,7.72,BR,1708797255
497,colonia,50.9333,6.95,6.57000000000005,77,75,5.66,DE,1708797255
498,mitu,1.1983,-70.1733,36.460000000000036,29,80,1.91,CO,1708797255
499,podu turcului,46.2,27.3833,13.32000000000005,54,98,4.93,RO,1708797255
500,euclides da cunha,-10.5075,-39.0158,28.230000000000018,58,36,6.15,BR,1708797203
501,westerland,54.9079,8.3033,5.57000000000005,87,100,3.09,DE,1708797256
502,cabedelo,-6.9811,-34.8339,32.370000000000005,66,7,7.42,BR,1708797110
503,salmas,38.1973,44.7653,3.390000000000043,70,69,2.22,IR,1708797256
504,sao gabriel da cachoeira,-0.1303,-67.0892,34.89000000000004,49,0,4.12,BR,1708797257
505,abra pampa,-22.7205,-65.697,18.390000000000043,40,54,5.35,AR,1708797257
506,smithers,54.7804,-127.1743,-1.8199999999999932,93,100,0.0,CA,1708797257
507,tbeng meanchey,13.8167,104.9667,27.25,38,1,2.59,KH,1708797257
508,santa cruz,-17.8,-63.1667,30.03000000000003,66,75,6.69,BO,1708797061
509,saudarkrokur,65.7461,-19.6394,-6.169999999999959,81,99,4.8,IS,1708796985
510,bodo,67.28,14.405,6.020000000000039,56,100,8.75,NO,1708797258
511,chernyshevskiy,63.0128,112.4714,-30.089999999999975,100,100,0.47,RU,1708797259
512,jinghong,21.991,100.7341,17.610000000000014,41,0,1.51,CN,1708797259
513,northam,51.0333,-4.2167,6.480000000000018,87,56,3.73,GB,1708797259
514,tralee,52.2704,-9.7026,9.140000000000043,76,40,1.54,IE,1708797259
515,nakhon phanom,17.3333,104.4167,22.200000000000045,68,44,4.19,TH,1708797260
516,yaren,-0.5472,166.916,28.200000000000045,72,79,2.07,NR,1708797260
517,pauini,-7.7136,-66.9764,23.620000000000005,98,99,1.75,BR,1708797261
518,kalmunai,7.4167,81.8167,25.230000000000018,77,6,2.07,LK,1708796991
519,richards bay,-28.783,32.0377,26.670000000000016,77,55,5.31,ZA,1708797261
520,luderitz,-26.6481,15.1594,18.210000000000036,76,1,8.19,NA,1708797261
521,tual,-5.6667,132.75,28.710000000000036,79,95,7.8,ID,1708797262
522,kem',64.9555,34.5793,0.8300000000000409,97,100,4.27,RU,1708797262
523,dakhla,23.6848,-15.958,20.010000000000048,60,0,16.46,EH,1708797262
524,calca,-13.3333,-71.95,19.640000000000043,83,100,1.87,PE,1708797262
525,antalaha,-14.9003,50.2788,25.890000000000043,86,69,4.25,MG,1708797262
526,tamanrasset,22.785,5.5228,21.950000000000045,11,0,6.69,DZ,1708797263
527,buka,40.8108,69.1986,2.140000000000043,93,100,0.56,UZ,1708797263
528,greytown,-29.0642,30.5928,20.100000000000023,89,94,1.75,ZA,1708797263
529,san isidro,-12.1167,-77.05,27.77000000000004,65,0,7.2,PE,1708797263
530,veraval,20.9,70.3667,22.650000000000034,43,0,4.13,IN,1708797088
531,santana,-0.0583,-51.1817,29.100000000000023,79,75,5.66,BR,1708797264
532,ouesso,1.6136,16.0517,29.03000000000003,28,41,1.17,CG,1708797264
533,sinop,41.7711,34.8709,8.460000000000036,64,5,0.97,TR,1708797264
534,macau,22.2006,113.5461,15.890000000000043,77,40,7.72,MO,1708797264
535,praia,14.9215,-23.5087,26.30000000000001,57,75,9.77,CV,1708797264
536,hami,42.8,93.45,-2.9899999999999523,51,28,2.45,CN,1708797265
537,aleksandrovsk-sakhalinskiy,50.8975,142.1561,-20.94999999999999,98,55,1.88,RU,1708797265
538,opelika,32.6454,-85.3783,19.340000000000032,33,0,6.17,US,1708796988
539,mukalla,14.5425,49.1242,24.160000000000025,74,9,1.44,YE,1708797100
540,iskenderun,36.5872,36.1735,15.460000000000036,69,23,1.57,TR,1708797266
541,dalhart,36.0595,-102.5133,15.260000000000048,28,0,6.69,US,1708797266
542,liberal,37.0431,-100.921,16.58000000000004,24,0,7.2,US,1708797266
543,mambulo,13.7167,123.05,24.29000000000002,94,32,2.95,PH,1708797266
544,plastun,44.7561,136.2939,-9.569999999999993,70,39,2.12,RU,1708797188
545,kharp,66.8014,65.8081,-7.71999999999997,91,99,3.27,RU,1708797266
546,nyurba,63.2842,118.3319,-34.43999999999997,100,92,0.54,RU,1708797267
547,urumqi,43.801,87.6005,-14.46999999999997,72,40,2.0,CN,1708797267
548,yanbu,24.0891,38.0637,28.02000000000004,42,20,7.2,SA,1708797267
549,amos,48.5669,-78.1162,-15.289999999999964,76,89,1.97,CA,1708797267
550,barra de santo antonio,-9.4047,-35.5072,28.600000000000023,66,21,4.75,BR,1708797268
551,kievka,50.2619,71.5514,-26.859999999999985,90,60,1.26,KZ,1708797268
552,shambu,9.5667,37.1,17.660000000000025,34,77,0.56,ET,1708797268
553,araguaina,-7.1911,-48.2072,30.54000000000002,61,33,2.63,BR,1708796999
554,kuala terengganu,5.3302,103.1408,26.970000000000027,83,40,1.03,MY,1708797268
555,tabor,49.4144,14.6578,7.53000000000003,85,85,2.76,CZ,1708797268
556,jerome,42.7241,-114.5186,9.82000000000005,57,0,2.06,US,1708797268
557,salinas,36.6777,-121.6555,20.460000000000036,67,0,8.23,US,1708797269
558,douentza,14.9951,-2.9517,30.060000000000002,7,51,2.9,ML,1708797269
559,willis,30.4249,-95.4799,25.600000000000023,36,0,3.09,US,1708797153
560,veliko turnovo,43.0812,25.629,11.300000000000011,62,55,3.6,BG,1708797269
561,soc trang,9.6033,105.98,25.710000000000036,80,23,5.46,VN,1708797269
562,mogadishu,2.0371,45.3438,27.090000000000032,78,100,8.65,SO,1708797270
563,broome,42.2506,-75.833,-3.069999999999993,60,0,5.14,US,1708797270
564,naze,28.3667,129.4833,18.510000000000048,81,73,8.2,JP,1708797270
565,ilebo,-4.3167,20.5833,23.260000000000048,98,80,1.19,CD,1708797270
566,trinidad,-14.8333,-64.9,27.99000000000001,78,75,3.09,BO,1708797270
567,roma,43.2128,-75.4557,-4.1200000000000045,42,0,3.6,US,1708796973
568,murygino,58.7383,49.4582,-4.7999999999999545,94,100,4.37,RU,1708797271
569,sokoni,-6.4333,39.55,25.920000000000016,73,99,4.42,TZ,1708797271
570,traben-trarbach,49.95,7.1167,5.75,89,20,4.63,DE,1708797271
571,cavelossim,15.1726,73.9419,25.99000000000001,72,12,2.77,IN,1708797271
572,suksun,57.1431,57.3949,-13.620000000000005,90,32,5.35,RU,1708797272
573,sioux center,43.0797,-96.1756,5.560000000000002,72,2,3.13,US,1708797272
574,pandan,14.0453,124.1694,25.360000000000014,89,54,6.74,PH,1708797272
575,aginskoye,51.1,114.53,-21.50999999999999,83,6,4.54,RU,1708797272
576,caconda,-13.7333,15.0667,18.379999999999995,90,98,3.06,AO,1708797272
